[
  {
    "id": "S001",
    "name": "Civil Hospital Emergency",
    "type": "hospital",
    "lat": 24.8617,
    "lng": 67.0129,
    "area": "Garden/Saddar",
    "phone": "021-99215740",
    "services": ["trauma", "cardiac", "burns", "surgery"],
    "24hr": true,
    "region": "karachi"
  },
  {
    "id": "S002",
    "name": "Edhi Ambulance Station - Saddar",
    "type": "ambulance",
    "lat": 24.8550,
    "lng": 67.0050,
    "area": "Saddar",
    "phone": "115",
    "services": ["ambulance", "rescue", "patient transport"],
    "24hr": true,
    "region": "karachi"
  },
  {
    "id": "S003",
    "name": "Pakistan Institute of Medical Sciences (PIMS)",
    "type": "hospital",
    "lat": 33.6933,
    "lng": 73.0586,
    "area": "G-8",
    "phone": "051-9261170",
    "services": ["trauma", "cardiac", "burns", "pediatric ER"],
    "24hr": true,
    "region": "islamabad"
  },
  {
    "id": "S004",
    "name": "Aga Khan University Hospital",
    "type": "hospital",
    "lat": 24.8615,
    "lng": 67.0632,
    "area": "Stadium Road",
    "phone": "021-111-911-911",
    "services": ["trauma", "cardiac", "burns", "pediatric ER", "poison control"],
    "24hr": true,
    "region": "karachi"
  },
  {
    "id": "S005",
    "name": "Jinnah Postgraduate Medical Centre (JPMC)",
    "type": "hospital",
    "lat": 24.8522,
    "lng": 67.0425,
    "area": "Clifton/Saddar",
    "phone": "021-99201300",
    "services": ["trauma", "cardiac", "burns", "intensive care"],
    "24hr": true,
    "region": "karachi"
  },
  {
    "id": "S006",
    "name": "Shifa International Hospital",
    "type": "hospital",
    "lat": 33.7172,
    "lng": 73.0593,
    "area": "H-8",
    "phone": "051-8463000",
    "services": ["trauma", "cardiac", "stroke", "pediatrics"],
    "24hr": true,
    "region": "islamabad"
  },
  {
    "id": "S007",
    "name": "Holy Family Hospital",
    "type": "hospital",
    "lat": 33.6190,
    "lng": 73.0680,
    "area": "Satellite Town",
    "phone": "051-9290321",
    "services": ["trauma", "cardiac", "maternity", "pediatrics"],
    "24hr": true,
    "region": "rawalpindi"
  },
  {
    "id": "S008",
    "name": "Rescue 1122 Central Station - Islamabad",
    "type": "rescue",
    "lat": 33.6840,
    "lng": 73.0450,
    "area": "I-9",
    "phone": "1122",
    "services": ["ambulance", "fire", "rescue", "disaster response"],
    "24hr": true,
    "region": "islamabad"
  },
  {
    "id": "S009",
    "name": "Rescue 1122 Head Office - Karachi",
    "type": "rescue",
    "lat": 24.8720,
    "lng": 67.0300,
    "area": "Garden East",
    "phone": "1122",
    "services": ["ambulance", "rescue", "accident relief"],
    "24hr": true,
    "region": "karachi"
  },
  {
    "id": "S010",
    "name": "Chhipa Ambulance Head Office - Karachi",
    "type": "ambulance",
    "lat": 24.8590,
    "lng": 67.0180,
    "area": "Saddar",
    "phone": "1020",
    "services": ["ambulance", "patient transport"],
    "24hr": true,
    "region": "karachi"
  },
  {
    "id": "S011",
    "name": "Fire Department Head Station - Karachi",
    "type": "fire_station",
    "lat": 24.8625,
    "lng": 67.0115,
    "area": "Saddar",
    "phone": "16",
    "services": ["firefighting", "hazard control", "chemical relief"],
    "24hr": true,
    "region": "karachi"
  },
  {
    "id": "S012",
    "name": "Fire Station - Blue Area",
    "type": "fire_station",
    "lat": 33.7150,
    "lng": 73.0550,
    "area": "Blue Area",
    "phone": "16",
    "services": ["firefighting", "rescue"],
    "24hr": true,
    "region": "islamabad"
  },
  {
    "id": "S013",
    "name": "Police Helpline 15 Central Command",
    "type": "police",
    "lat": 24.8600,
    "lng": 67.0200,
    "area": "Garden",
    "phone": "15",
    "services": ["law enforcement", "emergency security", "first response"],
    "24hr": true,
    "region": "karachi"
  },
  {
    "id": "S014",
    "name": "Police Helpline 15 - Islamabad Center",
    "type": "police",
    "lat": 33.7290,
    "lng": 73.0850,
    "area": "G-6",
    "phone": "15",
    "services": ["law enforcement", "emergency security"],
    "24hr": true,
    "region": "islamabad"
  },
  {
    "id": "S015",
    "name": "National Poison Control Center - JPMC",
    "type": "hospital",
    "lat": 24.8522,
    "lng": 67.0425,
    "area": "Saddar",
    "phone": "021-99201300",
    "services": ["poison control", "chemical detox", "antidote bank"],
    "24hr": true,
    "region": "karachi"
  },
  {
    "id": "S016",
    "name": "Rescue 1122 Response Post - H-11",
    "type": "rescue",
    "lat": 33.6622,
    "lng": 72.9995,
    "area": "H-11",
    "phone": "1122",
    "services": ["ambulance", "rescue", "trauma", "fire"],
    "24hr": true,
    "region": "islamabad"
  },
  {
    "id": "S017",
    "name": "Maroof International Hospital - F-10/F-11",
    "type": "hospital",
    "lat": 33.6930,
    "lng": 72.9915,
    "area": "F-10/F-11",
    "phone": "051-2222920",
    "services": ["trauma", "cardiac", "emergency", "pediatrics"],
    "24hr": true,
    "region": "islamabad"
  }
]
